[
    {
        "name": "Porto de Santos",
        "city": "Santos",
        "state": "SP",
        "lat": -23.9527,
        "lon": -46.3273,
        "aliases": ["Porto de Santos", "Santos", "BRSSZ"],
        "gates": [
            {
                "label": "Ponta da Praia",
                "lat": -23.9608,
                "lon": -46.3336
            }
        ]
    },
    {
        "name": "Porto do Rio de Janeiro",
        "city": "Rio de Janeiro",
        "state": "RJ",
        "lat": -22.9008,
        "lon": -43.167,
        "aliases": ["Porto do Rio de Janeiro", "Rio de Janeiro", "BRRIO", "Cais do Porto do Rio"],
        "gates": [
            {
                "label": "Gate",
                "lat": -22.8955054956779,
                "lon": -43.18241176336533
            }
        ]
    },
    {
        "name": "Porto de Itaguaí",
        "city": "Itaguaí",
        "state": "RJ",
        "lat": -22.9341,
        "lon": -43.8497,
        "aliases": ["Itaguaí (Sepetiba)", "Sepetiba", "BRIGI"],
        "gates": [
            {
                "label": "Gate",
                "lat": -22.926996823121193,
                "lon": -43.83781632592822
            }
        ]
    },
    {
        "name": "Porto de Paranaguá",
        "city": "Paranaguá",
        "state": "PR",
        "lat": -25.508,
        "lon": -48.503,
        "aliases": ["Paranaguá", "TCP", "BRPNG"],
        "gates": [
            {
                "label": "Gate",
                "lat": -25.502474677480134,
                "lon": -48.519640267159744
            }
        ]
    },
    {
        "name": "Porto de São Francisco do Sul",
        "city": "São Francisco do Sul",
        "state": "SC",
        "lat": -26.2486,
        "lon": -48.6345,
        "aliases": ["São Francisco do Sul", "SFS", "BRSFS"],
        "gates": [
            {
                "label": "Gate",
                "lat": -26.241112922961452,
                "lon": -48.634956367408485
            }
        ]
    },
    {
        "name": "Porto de Itapoá",
        "city": "Itapoá",
        "state": "SC",
        "lat": -26.1155,
        "lon": -48.6181,
        "aliases": ["Itapoá", "Porto Itapoá", "BRIOA"],
        "gates": [
            {
                "label": "Gate",
                "lat": -26.18091343975542,
                "lon": -48.601644547860545
            }
        ]
    },
    {
        "name": "Porto de Navegantes",
        "city": "Navegantes",
        "state": "SC",
        "lat": -26.8889,
        "lon": -48.6517,
        "aliases": ["Navegantes (Portonave)", "Portonave", "Navegantes", "BRNVT"],
        "gates": [
            {
                "label": "Gate",
                "lat": -26.893883111955493,
                "lon": -48.660383812900065
            }
        ]
    },
    {
        "name": "Porto de Itajaí",
        "city": "Itajaí",
        "state": "SC",
        "lat": -26.9025,
        "lon": -48.6599,
        "aliases": ["Itajaí", "BRITJ"],
        "gates": [
            {
                "label": "Gate",
                "lat": -26.90134454079423,
                "lon": -48.666673922940724
            }
        ]
    },
    {
        "name": "Porto de Imbituba",
        "city": "Imbituba",
        "state": "SC",
        "lat": -28.2406,
        "lon": -48.657,
        "aliases": ["Imbituba", "BRIBB"],
        "gates": [
            {
                "label": "Gate",
                "lat": -28.240341413375152,
                "lon": -48.658215918914195
            }
        ]
    },
    {
        "name": "Porto do Rio Grande",
        "city": "Rio Grande",
        "state": "RS",
        "lat": -32.0332,
        "lon": -52.091,
        "aliases": ["Rio Grande", "BRRIG"],
        "gates": [
            {
                "label": "Gate",
                "lat": -32.11359854943913,
                "lon": -52.11183688536372
            }
        ]
    },
    {
        "name": "Porto de Vitória",
        "city": "Vila Velha",
        "state": "ES",
        "lat": -20.3274,
        "lon": -40.3072,
        "aliases": ["Vitória", "Vitória / TVV (Vila Velha)", "TVV", "Vila Velha", "BRVIX"],
        "gates": [
            {
                "label": "Gate",
                "lat": -20.321953243737823,
                "lon": -40.3380947462838
            }
        ]
    },
    {
        "name": "Porto de Salvador",
        "city": "Salvador",
        "state": "BA",
        "lat": -12.9677,
        "lon": -38.5142,
        "aliases": ["Salvador", "Tecon Salvador", "BRSSA"],
        "gates": [
            {
                "label": "Gate",
                "lat": -12.969542990819019,
                "lon": -38.51296449738961
            }
        ]
    },
    {
        "name": "Porto de Aratu",
        "city": "Candeias",
        "state": "BA",
        "lat": -12.778,
        "lon": -38.546,
        "aliases": ["Aratu-Candeias", "Aratu", "Candeias", "BRATU"],
        "gates": [
            {
                "label": "Gate",
                "lat": -12.781364678772611,
                "lon": -38.497262409668494
            }
        ]
    },
    {
        "name": "Porto de Suape",
        "city": "Ipojuca",
        "state": "PE",
        "lat": -8.3866,
        "lon": -34.9458,
        "aliases": ["Suape", "BRSUA", "Complexo de Suape"],
        "gates": [
            {
                "label": "Gate",
                "lat": -8.394046412845151,
                "lon": -34.97428186936652
            }
        ]
    },
    {
        "name": "Porto do Recife",
        "city": "Recife",
        "state": "PE",
        "lat": -8.061,
        "lon": -34.871,
        "aliases": ["Recife", "BRREC"],
        "gates": []
    },
    {
        "name": "Porto de Cabedelo",
        "city": "Cabedelo",
        "state": "PB",
        "lat": -6.966,
        "lon": -34.836,
        "aliases": ["Cabedelo", "BRCAB"],
        "gates": []
    },
    {
        "name": "Porto de Natal",
        "city": "Natal",
        "state": "RN",
        "lat": -5.771,
        "lon": -35.2,
        "aliases": ["Natal", "BRNAT"],
        "gates": []
    },
    {
        "name": "Porto de Maceió",
        "city": "Maceió",
        "state": "AL",
        "lat": -9.677,
        "lon": -35.726,
        "aliases": ["Maceió", "BRMAC"],
        "gates": []
    },
    {
        "name": "Porto do Pecém",
        "city": "São Gonçalo do Amarante",
        "state": "CE",
        "lat": -3.5321,
        "lon": -38.8031,
        "aliases": ["Pecém", "BRPEC"],
        "gates": [
            {
                "label": "Gate",
                "lat": -3.5494778328512973,
                "lon": -38.8147005682275
            }
        ]
    },
    {
        "name": "Porto de Fortaleza",
        "city": "Fortaleza",
        "state": "CE",
        "lat": -3.711,
        "lon": -38.475,
        "aliases": ["Fortaleza", "Fortaleza (Mucuripe)", "Mucuripe", "BRFOR"],
        "gates": []
    },
    {
        "name": "Porto de Vila do Conde",
        "city": "Barcarena",
        "state": "PA",
        "lat": -1.5319,
        "lon": -48.7552,
        "aliases": ["Vila do Conde", "BRVLC", "Barcarena"],
        "gates": [
            {
                "label": "Gate",
                "lat": -1.5423359446434826,
                "lon": -48.750183352633655
            }
        ]
    },
    {
        "name": "Porto de Belém",
        "city": "Belém",
        "state": "PA",
        "lat": -1.4429,
        "lon": -48.505,
        "aliases": ["Belém", "BRELM"],
        "gates": [
            {
                "label": "Gate",
                "lat": -1.4402750450487714,
                "lon": -48.49427427236856
            }
        ]
    },
    {
        "name": "Porto de Santarém",
        "city": "Santarém",
        "state": "PA",
        "lat": -2.422,
        "lon": -54.719,
        "aliases": ["Santarém", "BRSTM"],
        "gates": []
    },
    {
        "name": "Porto de Santana",
        "city": "Santana",
        "state": "AP",
        "lat": 0.054,
        "lon": -51.174,
        "aliases": ["Santana (AP)", "Macapá", "BRSNT"],
        "gates": []
    },
    {
        "name": "Porto de Manaus",
        "city": "Manaus",
        "state": "AM",
        "lat": -3.1567,
        "lon": -60.0079,
        "aliases": ["Manaus", "BRMAO"],
        "gates": []
    },
    {
        "name": "Porto do Itaqui",
        "city": "São Luís",
        "state": "MA",
        "lat": -2.5828,
        "lon": -44.3686,
        "aliases": ["Itaqui", "BRIQI"],
        "gates": []
    },
    {
        "name": "Porto de São Sebastião",
        "city": "São Sebastião",
        "state": "SP",
        "lat": -23.801,
        "lon": -45.401,
        "aliases": ["São Sebastião", "BRSSO"],
        "gates": [
            {
                "label": "Gate",
                "lat": -23.808154673463267,
                "lon": -45.39974141587111
            }
        ]
    },
    {
        "name": "Porto de Angra dos Reis",
        "city": "Angra dos Reis",
        "state": "RJ",
        "lat": -23.0066,
        "lon": -44.3197,
        "aliases": ["Angra dos Reis", "BRADR"],
        "gates": [
            {
                "label": "Gate",
                "lat": -23.00783627570352,
                "lon": -44.31555177217656
            }
        ]
    }
]
